{"placemarks":[{"address":"Nw 22nd Ave 2141, 97210 Multnomah","coordinates":[-122.69689,45.53798,0],"engineType":"CE","exterior":"UNACCEPTABLE","fuel":27,"interior":"GOOD","name":"332FRH","vin":"WMEEJ3BA1CK564213"},{"address":"Ne 10th Ave 335, 97232 Multnomah","coordinates":[-122.65567,45.52536,0],"engineType":"CE","exterior":"GOOD","fuel":54,"interior":"GOOD","name":"331FRH","vin":"WMEEJ3BA7CK561154"},{"address":"N Commerce St 4329, 97217 Multnomah","coordinates":[-122.7109,45.56144,0],"engineType":"CE","exterior":"GOOD","fuel":33,"interior":"GOOD","name":"156FRH","vin":"WMEEJ3BA2CK561062"},{"address":"Ne Russell St 8567, 97220 Multnomah","coordinates":[-122.57469,45.54092,0],"engineType":"CE","exterior":"GOOD","fuel":100,"interior":"GOOD","name":"154FRH","vin":"WMEEJ3BA1CK561389"},{"address":"Sw Pine St 245, 97204 Multnomah","coordinates":[-122.67313,45.52148,0],"engineType":"CE","exterior":"GOOD","fuel":48,"interior":"GOOD","name":"153 FRH","vin":"WMEEJ3BA5CK561475"},{"address":"Ne 33rd Ave 5275, 97211 Multnomah","coordinates":[-122.63073,45.56111,0],"engineType":"CE","exterior":"GOOD","fuel":33,"interior":"GOOD","name":"326FRH","vin":"WMEEJ3BAXCK561570"},{"address":"Se Tacoma St 2353, 97202 Multnomah","coordinates":[-122.64091,45.46469,0],"engineType":"CE","exterior":"GOOD","fuel":18,"interior":"GOOD","name":"309FRH","vin":"WMEEJ3BA6CK561792"},{"address":"Se 60th Ave 2509, 97206 Multnomah","coordinates":[-122.60122,45.50486,0],"engineType":"CE","exterior":"GOOD","fuel":36,"interior":"GOOD","name":"171FRH","vin":"WMEEJ3BA5CK562206"},{"address":"Ne Killingsworth St 3086, 97211 Multnomah","coordinates":[-122.6339,45.56262,0],"engineType":"CE","exterior":"GOOD","fuel":75,"interior":"GOOD","name":"152FRH","vin":"WMEEJ3BA7CK562160"},{"address":"Sw 3rd Ave 1484, 97201 Multnomah","coordinates":[-122.67828,45.51299,0],"engineType":"CE","exterior":"GOOD","fuel":100,"interior":"GOOD","name":"339FRH","vin":"WMEEJ3BA5CK562450"},{"address":"Sw Harbor Way 1831, 97201 Multnomah","coordinates":[-122.67525,45.51018,0],"engineType":"CE","exterior":"GOOD","fuel":18,"interior":"GOOD","name":"162 FRH","vin":"WMEEJ3BA1CK561506"},{"address":"Sw 5th Ave 2133, 97201 Multnomah","coordinates":[-122.68305,45.50791,0],"engineType":"CE","exterior":"GOOD","fuel":27,"interior":"GOOD","name":"251FRH","vin":"WMEEJ3BA1CK561585"},{"address":"Sw 4th Ave 933, 97204 Multnomah","coordinates":[-122.67751,45.51706,0],"engineType":"CE","exterior":"GOOD","fuel":90,"interior":"GOOD","name":"297FRH","vin":"WMEEJ3BA0CK568320"},{"address":"Sw Harrison St 539, 97201 Multnomah","coordinates":[-122.68228,45.51096,0],"engineType":"CE","exterior":"GOOD","fuel":30,"interior":"UNACCEPTABLE","name":"185FRH","vin":"WMEEJ3BA0CK562954"},{"address":"Nw Couch St 481, 97209 Multnomah","coordinates":[-122.67522,45.5238,0],"engineType":"CE","exterior":"GOOD","fuel":100,"interior":"GOOD","name":"253FRH","vin":"WMEEJ3BA2CK562714"},{"address":"Sw Oak St 244, 97204 Multnomah","coordinates":[-122.67352,45.52074,0],"engineType":"CE","exterior":"GOOD","fuel":81,"interior":"GOOD","name":"346FRH","vin":"WMEEJ3BAXCK561469"},{"address":"Nw 9th Ave 745, 97209 Multnomah","coordinates":[-122.68031,45.52834,0],"engineType":"CE","exterior":"GOOD","fuel":100,"interior":"GOOD","name":"254FRH","vin":"WMEEJ3BA4CK562861"},{"address":"Nw Wilson St 2551, 97210 Multnomah","coordinates":[-122.70391,45.53766,0],"engineType":"CE","exterior":"GOOD","fuel":100,"interior":"GOOD","name":"165 FRH","vin":"WMEEJ3BA2CK561756"},{"address":"Sw Taylor St 932, 97205 Multnomah","coordinates":[-122.68215,45.51852,0],"engineType":"CE","exterior":"GOOD","fuel":57,"interior":"GOOD","name":"250 FRH","vin":"WMEEJ3BA1CK564163"},{"address":"Sw 13th Ave 1021, 97205 Multnomah","coordinates":[-122.68624,45.51872,0],"engineType":"CE","exterior":"GOOD","fuel":100,"interior":"GOOD","name":"265FRH","vin":"WMEEJ3BA1CK563076"},{"address":"Nw Everett St 652, 97209 Multnomah","coordinates":[-122.67694,45.52515,0],"engineType":"CE","exterior":"GOOD","fuel":45,"interior":"GOOD","name":"262FRH","vin":"WMEEJ3BA4CK562214"},{"address":"N Port Center Way, 97217 Multnomah","coordinates":[-122.69972,45.5554,0],"engineType":"CE","exterior":"GOOD","fuel":66,"interior":"GOOD","name":"213 FRH","vin":"WMEEJ3BA8CK564189"},{"address":"Se Stark St 1022, 97214 Multnomah","coordinates":[-122.6554,45.51935,0],"engineType":"CE","exterior":"GOOD","fuel":24,"interior":"GOOD","name":"257FRH","vin":"WMEEJ3BA7CK563163"},{"address":"Nw Irving St 1846, 97209 Multnomah","coordinates":[-122.6899,45.52781,0],"engineType":"CE","exterior":"GOOD","fuel":100,"interior":"GOOD","name":"268FRH","vin":"WMEEJ3BA0CK560931"},{"address":"Sw Corbett Ave 5168, 97239 Multnomah","coordinates":[-122.67661,45.486,0],"engineType":"CE","exterior":"GOOD","fuel":72,"interior":"UNACCEPTABLE","name":"263FRH","vin":"WMEEJ3BA8CK562037"},{"address":"Sw 11th Ave 1161, 97205 Multnomah","coordinates":[-122.68473,45.51724,0],"engineType":"CE","exterior":"GOOD","fuel":69,"interior":"GOOD","name":"219 FRH","vin":"WMEEJ3BA5CK561668"},{"address":"N Channel Ave 4811, 97217 Multnomah","coordinates":[-122.70693,45.55725,0],"engineType":"CE","exterior":"GOOD","fuel":100,"interior":"GOOD","name":"319FRH","vin":"WMEEJ3BA9CK563522"},{"address":"Ne Multnomah St 6869, 97213 Multnomah","coordinates":[-122.59208,45.53162,0],"engineType":"CE","exterior":"GOOD","fuel":45,"interior":"GOOD","name":"291FRH","vin":"WMEEJ3BA5CK569513"},{"address":"G St, 97219 Multnomah","coordinates":[-122.73022,45.44101,0],"engineType":"CE","exterior":"GOOD","fuel":57,"interior":"GOOD","name":"317FRH","vin":"WMEEJ3BAXCK563061"},{"address":"Ne 67th Ave 639, 97213 Multnomah","coordinates":[-122.59445,45.52729,0],"engineType":"CE","exterior":"GOOD","fuel":39,"interior":"GOOD","name":"323FRH","vin":"WMEEJ3BA2CK561238"},{"address":"N Basin Ave 5361, 97217 Multnomah","coordinates":[-122.7036,45.5615,0],"engineType":"CE","exterior":"GOOD","fuel":72,"interior":"GOOD","name":"311FRH","vin":"WMEEJ3BA4CK561337"},{"address":"N Loring St 1180, 97227 Multnomah","coordinates":[-122.67902,45.53957,0],"engineType":"CE","exterior":"GOOD","fuel":84,"interior":"GOOD","name":"204 FRH","vin":"WMEEJ3BA8CK562877"},{"address":"N Cutter Cir 6108, 97217 Multnomah","coordinates":[-122.70243,45.56469,0],"engineType":"CE","exterior":"GOOD","fuel":21,"interior":"GOOD","name":"245 FRH","vin":"WMEEJ3BA9CK561804"},{"address":"Sw Oak St 555, 97204 Multnomah","coordinates":[-122.67656,45.5218,0],"engineType":"CE","exterior":"GOOD","fuel":63,"interior":"GOOD","name":"308FRH","vin":"WMEEJ3BA5CK562299"},{"address":"Sw Montgomery St 247, 97201 Multnomah","coordinates":[-122.67449,45.50961,0],"engineType":"CE","exterior":"GOOD","fuel":75,"interior":"GOOD","name":"231 FRH","vin":"WMEEJ3BA8CK560904"},{"address":"Se 72nd Ave 5591, 97206 Multnomah","coordinates":[-122.58934,45.48251,0],"engineType":"CE","exterior":"GOOD","fuel":100,"interior":"GOOD","name":"307FRH","vin":"WMEEJ3BAXCK562251"},{"address":"Se 2nd Ave 765, 97214 Multnomah","coordinates":[-122.66387,45.51751,0],"engineType":"CE","exterior":"GOOD","fuel":48,"interior":"GOOD","name":"306FRH","vin":"WMEEJ3BA7CK562403"},{"address":"Se 16th Ave 6612, 97202 Multnomah","coordinates":[-122.64998,45.47503,0],"engineType":"CE","exterior":"GOOD","fuel":66,"interior":"GOOD","name":"158FRH","vin":"WMEEJ3BA4CK560852"},{"address":"Se Woodstock Blvd 5082, 97206 Multnomah","coordinates":[-122.61021,45.47915,0],"engineType":"CE","exterior":"GOOD","fuel":63,"interior":"GOOD","name":"328FRH","vin":"WMEEJ3BA6CK561095"},{"address":"Ne 60th Ave 6018, 97218 Multnomah","coordinates":[-122.60072,45.56654,0],"engineType":"CE","exterior":"GOOD","fuel":87,"interior":"GOOD","name":"194 FRH","vin":"WMEEJ3BA9CK561897"},{"address":"Se Morrison St 1040, 97214 Multnomah","coordinates":[-122.65522,45.51718,0],"engineType":"CE","exterior":"GOOD","fuel":45,"interior":"UNACCEPTABLE","name":"195 FRH","vin":"WMEEJ3BA3CK561698"},{"address":"Se Ivon St 6157, 97206 Multnomah","coordinates":[-122.59975,45.50441,0],"engineType":"CE","exterior":"GOOD","fuel":33,"interior":"GOOD","name":"330FRH","vin":"WMEEJ3BA7CK561591"},{"address":"Nw Marshall St 2135, 97210 Multnomah","coordinates":[-122.69529,45.53062,0],"engineType":"CE","exterior":"GOOD","fuel":75,"interior":"GOOD","name":"198 FRH","vin":"WMEEJ3BAXCK561987"},{"address":"Sw Corbett Ave 5657, 97239 Multnomah","coordinates":[-122.6769,45.48279,0],"engineType":"CE","exterior":"UNACCEPTABLE","fuel":100,"interior":"UNACCEPTABLE","name":"199 FRH","vin":"WMEEJ3BA0CK562324"},{"address":"Nw Johnson St 1345, 97209 Multnomah","coordinates":[-122.6848,45.52867,0],"engineType":"CE","exterior":"GOOD","fuel":100,"interior":"GOOD","name":"200 FRH","vin":"WMEEJ3BA1CK561490"},{"address":"Ne 52nd Ave 5081, 97218 Multnomah","coordinates":[-122.60952,45.5598,0],"engineType":"CE","exterior":"GOOD","fuel":100,"interior":"GOOD","name":"230 FRH","vin":"WMEEJ3BA4CK562228"},{"address":"Ne 63rd Ave 1525, 97213 Multnomah","coordinates":[-122.59867,45.53387,0],"engineType":"CE","exterior":"GOOD","fuel":93,"interior":"GOOD","name":"337FRH","vin":"WMEEJ3BA6CK562134"},{"address":"Nw Flanders St 817, 97209 Multnomah","coordinates":[-122.67935,45.52587,0],"engineType":"CE","exterior":"GOOD","fuel":96,"interior":"GOOD","name":"335FRH","vin":"WMEEJ3BA6CK563431"},{"address":"Se Nehalem St 2308, 97202 Multnomah","coordinates":[-122.64135,45.46568,0],"engineType":"CE","exterior":"GOOD","fuel":54,"interior":"GOOD","name":"334FRH","vin":"WMEEJ3BA3CK564102"},{"address":"C St, 97219 Multnomah","coordinates":[-122.72872,45.43781,0],"engineType":"CE","exterior":"GOOD","fuel":69,"interior":"GOOD","name":"314FRH","vin":"WMEEJ3BA3CK563113"},{"address":"Sw 13th Ave 663, 97205 Multnomah","coordinates":[-122.68515,45.52114,0],"engineType":"CE","exterior":"GOOD","fuel":100,"interior":"GOOD","name":"302FRH","vin":"WMEEJ3BA6CK564157"},{"address":"Se 37th Ave 5229, 97202 Multnomah","coordinates":[-122.62476,45.48523,0],"engineType":"CE","exterior":"GOOD","fuel":100,"interior":"GOOD","name":"227FRH","vin":"WMEEJ3BA3CK563712"},{"address":"Sw Macadam Ave 6970, 97219 Multnomah","coordinates":[-122.67066,45.47399,0],"engineType":"CE","exterior":"GOOD","fuel":100,"interior":"GOOD","name":"209 FRH","vin":"WMEEJ3BA7CK560912"},{"address":"Se 92nd Ave 2633, 97266 Multnomah","coordinates":[-122.56872,45.50326,0],"engineType":"CE","exterior":"GOOD","fuel":100,"interior":"GOOD","name":"207 FRH","vin":"WMEEJ3BA9CK561446"},{"address":"Nw Couch St 1027, 97209 Multnomah","coordinates":[-122.68142,45.52376,0],"engineType":"CE","exterior":"GOOD","fuel":63,"interior":"GOOD","name":"226 FRH","vin":"WMEEJ3BAXCK564095"},{"address":"Se Water Ave 1416, 97214 Multnomah","coordinates":[-122.66581,45.51287,0],"engineType":"CE","exterior":"GOOD","fuel":51,"interior":"GOOD","name":"224 FRH","vin":"WMEEJ3BA1CK560971"},{"address":"Sw Naito Pky 777, 97204 Multnomah","coordinates":[-122.67297,45.51701,0],"engineType":"CE","exterior":"GOOD","fuel":100,"interior":"GOOD","name":"223 FRH","vin":"WMEEJ3BA5CK561329"},{"address":"Ne 22nd Ave 4925, 97211 Multnomah","coordinates":[-122.64287,45.55859,0],"engineType":"CE","exterior":"GOOD","fuel":100,"interior":"GOOD","name":"164 FRH","vin":"WMEEJ3BA2CK561403"},{"address":"Se 84th Ave 3217, 97266 Multnomah","coordinates":[-122.57617,45.49909,0],"engineType":"CE","exterior":"GOOD","fuel":100,"interior":"GOOD","name":"218 FRH","vin":"WMEEJ3BA4CK561841"},{"address":"Pacific Hwy E, 97232 Multnomah","coordinates":[-122.66063,45.5271,0],"engineType":"CE","exterior":"GOOD","fuel":39,"interior":"GOOD","name":"229 FRH","vin":"WMEEJ3BA3CK562575"},{"address":"Ne 67th Ave 2023, 97213 Multnomah","coordinates":[-122.5942,45.53677,0],"engineType":"CE","exterior":"GOOD","fuel":100,"interior":"GOOD","name":"211 FRH","vin":"WMEEJ3BA4CK563718"},{"address":"N Portsmouth Ave 7440, 97203 Multnomah","coordinates":[-122.72463,45.58164,0],"engineType":"CE","exterior":"GOOD","fuel":96,"interior":"GOOD","name":"206 FRH","vin":"WMEEJ3BA8CK563706"},{"address":"Nw 11th Ave 359, 97209 Multnomah","coordinates":[-122.68219,45.52555,0],"engineType":"CE","exterior":"UNACCEPTABLE","fuel":45,"interior":"UNACCEPTABLE","name":"228 FRH","vin":"WMEEJ3BA8CK563883"},{"address":"Sw Alder St 742, 97205 Multnomah","coordinates":[-122.67963,45.52015,0],"engineType":"CE","exterior":"GOOD","fuel":63,"interior":"GOOD","name":"249 FRH","vin":"WMEEJ3BA9CK564136"},{"address":"Sw Taylor St 957, 97205 Multnomah","coordinates":[-122.68236,45.51862,0],"engineType":"CE","exterior":"GOOD","fuel":72,"interior":"GOOD","name":"248 FRH","vin":"WMEEJ3BA8CK564208"},{"address":"Se 22nd Ave 6875, 97202 Multnomah","coordinates":[-122.64295,45.47463,0],"engineType":"CE","exterior":"GOOD","fuel":39,"interior":"GOOD","name":"175 FRH","vin":"WMEEJ3BA8CK561258"},{"address":"Se Stark St 7167, 97215 Multnomah","coordinates":[-122.58913,45.5192,0],"engineType":"CE","exterior":"GOOD","fuel":51,"interior":"GOOD","name":"246 FRH","vin":"WMEEJ3BA8CK561647"},{"address":"Se 19th Ave 8071, 97202 Multnomah","coordinates":[-122.64511,45.46474,0],"engineType":"CE","exterior":"GOOD","fuel":36,"interior":"GOOD","name":"240 FRH","vin":"WMEEJ3BA8CK561485"},{"address":"Sw Boundary St 258, 97239 Multnomah","coordinates":[-122.67624,45.48507,0],"engineType":"CE","exterior":"GOOD","fuel":63,"interior":"GOOD","name":"239 FRH","vin":"WMEEJ3BA2CK562051"},{"address":"Sw 3rd Ave 1394, 97201 Multnomah","coordinates":[-122.67803,45.51363,0],"engineType":"CE","exterior":"GOOD","fuel":100,"interior":"GOOD","name":"233 FRH","vin":"WMEEJ3BA8CK561132"},{"address":"Se Woodstock Blvd 4050, 97202 Multnomah","coordinates":[-122.62108,45.47914,0],"engineType":"CE","exterior":"GOOD","fuel":39,"interior":"GOOD","name":"232 FRH","vin":"WMEEJ3BA6CK560979"},{"address":"Sw Broadway 1893, 97201 Multnomah","coordinates":[-122.68423,45.51082,0],"engineType":"CE","exterior":"GOOD","fuel":30,"interior":"GOOD","name":"177 FRH","vin":"WMEEJ3BA7CK561560"},{"address":"Se Woodstock Blvd 5062, 97206 Multnomah","coordinates":[-122.6105,45.47912,0],"engineType":"CE","exterior":"UNACCEPTABLE","fuel":30,"interior":"UNACCEPTABLE","name":"178 FRH","vin":"WMEEJ3BA1CK561411"},{"address":"Nw Davis St 828, 97209 Multnomah","coordinates":[-122.67944,45.52442,0],"engineType":"CE","exterior":"GOOD","fuel":60,"interior":"GOOD","name":"179 FRH","vin":"WMEEJ3BA8CK561423"},{"address":"N Port Center Way, 97217 Multnomah","coordinates":[-122.69981,45.55571,0],"engineType":"CE","exterior":"GOOD","fuel":100,"interior":"GOOD","name":"180 FRH","vin":"WMEEJ3BA1CK561778"},{"address":"Se 60th Ave 2799, 97206 Multnomah","coordinates":[-122.60123,45.50248,0],"engineType":"CE","exterior":"GOOD","fuel":100,"interior":"GOOD","name":"181 FRH","vin":"WMEEJ3BAXCK561939"},{"address":"Nw 15th Ave 1627, 97209 Multnomah","coordinates":[-122.68658,45.53452,0],"engineType":"CE","exterior":"GOOD","fuel":100,"interior":"GOOD","name":"210 FRH","vin":"WMEEJ3BA4CK562391"},{"address":"Se Taylor St 273, 97214 Multnomah","coordinates":[-122.66304,45.51516,0],"engineType":"CE","exterior":"GOOD","fuel":33,"interior":"GOOD","name":"183FRH","vin":"WMEEJ3BA7CK562384"},{"address":"Sw Broadway 546, 97205 Multnomah","coordinates":[-122.67904,45.52036,0],"engineType":"CE","exterior":"GOOD","fuel":42,"interior":"UNACCEPTABLE","name":"338FRH","vin":"WMEEJ3BA7CK562773"},{"address":"Ne 94th Ave 733, 97220 Multnomah","coordinates":[-122.56685,45.52794,0],"engineType":"CE","exterior":"GOOD","fuel":69,"interior":"GOOD","name":"186FRH","vin":"WMEEJ3BA5CK563730"},{"address":"F St, 97219 Multnomah","coordinates":[-122.72773,45.43663,0],"engineType":"CE","exterior":"GOOD","fuel":30,"interior":"GOOD","name":"202 FRH","vin":"WMEEJ3BA3CK563323"},{"address":"Se Woodstock Blvd 3543, 97202 Multnomah","coordinates":[-122.62674,45.48026,0],"engineType":"CE","exterior":"GOOD","fuel":87,"interior":"GOOD","name":"201 FRH","vin":"WMEEJ3BA0CK563666"},{"address":"Se Sherman St 6030, 97215 Multnomah","coordinates":[-122.60137,45.50664,0],"engineType":"CE","exterior":"GOOD","fuel":60,"interior":"GOOD","name":"344FRH","vin":"WMEEJ3BA4CK561919"},{"address":"Se 38th Ave 4635, 97202 Multnomah","coordinates":[-122.62389,45.48956,0],"engineType":"CE","exterior":"GOOD","fuel":33,"interior":"GOOD","name":"169 FRH","vin":"WMEEJ3BA4CK561712"},{"address":"Ne Emerson St 8778, 97220 Multnomah","coordinates":[-122.57169,45.56186,0],"engineType":"CE","exterior":"UNACCEPTABLE","fuel":33,"interior":"UNACCEPTABLE","name":"341FRH","vin":"WMEEJ3BA9CK562080"},{"address":"Se Belmont St 253, 97214 Multnomah","coordinates":[-122.66326,45.51662,0],"engineType":"CE","exterior":"GOOD","fuel":81,"interior":"GOOD","name":"347FRH","vin":"WMEEJ3BA9CK561480"},{"address":"Se Woodstock Blvd 3617, 97202 Multnomah","coordinates":[-122.62611,45.47993,0],"engineType":"CE","exterior":"GOOD","fuel":63,"interior":"GOOD","name":"381FRH","vin":"WMEEJ3BAXCK563979"},{"address":"Sw Park Ave 587, 97205 Multnomah","coordinates":[-122.68023,45.52041,0],"engineType":"CE","exterior":"GOOD","fuel":69,"interior":"GOOD","name":"384FRH","vin":"WMEEJ3BA1CK564115"},{"address":"Nw Couch St 959, 97209 Multnomah","coordinates":[-122.68071,45.52373,0],"engineType":"CE","exterior":"GOOD","fuel":100,"interior":"GOOD","name":"387FRH","vin":"WMEEJ3BAXCK561438"},{"address":"Sw 3rd Ave 559, 97204 Multnomah","coordinates":[-122.67515,45.51928,0],"engineType":"CE","exterior":"GOOD","fuel":60,"interior":"GOOD","name":"390FRH","vin":"WMEEJ3BA6CK563915"},{"address":"Se 60th Ave 5979, 97206 Multnomah","coordinates":[-122.60213,45.47937,0],"engineType":"CE","exterior":"GOOD","fuel":72,"interior":"GOOD","name":"391FRH","vin":"WMEEJ3BA2CK561191"},{"address":"N Channel Ave 4807, 97217 Multnomah","coordinates":[-122.7069,45.55726,0],"engineType":"CE","exterior":"GOOD","fuel":36,"interior":"GOOD","name":"396FRH","vin":"WMEEJ3BA1CK561165"},{"address":"Sw 3rd Ave 469, 97204 Multnomah","coordinates":[-122.67496,45.51991,0],"engineType":"CE","exterior":"GOOD","fuel":69,"interior":"GOOD","name":"397FRH","vin":"WMEEJ3BA5CK562108"},{"address":"Nw 4th Ave 341, 97209 Multnomah","coordinates":[-122.67456,45.52558,0],"engineType":"CE","exterior":"UNACCEPTABLE","fuel":36,"interior":"GOOD","name":"398FRH","vin":"WMEEJ3BA8CK562846"},{"address":"N Port Center Way, 97217 Multnomah","coordinates":[-122.69984,45.55559,0],"engineType":"CE","exterior":"GOOD","fuel":75,"interior":"GOOD","name":"361FRH","vin":"WMEEJ3BA0CK561352"},{"address":"Se 10th Ave 1663, 97214 Multnomah","coordinates":[-122.65578,45.51106,0],"engineType":"CE","exterior":"GOOD","fuel":84,"interior":"GOOD","name":"362FRH","vin":"WMEEJ3BA5CK560844"},{"address":"Sw Clay St 374, 97201 Multnomah","coordinates":[-122.67917,45.51313,0],"engineType":"CE","exterior":"GOOD","fuel":100,"interior":"GOOD","name":"368FRH","vin":"WMEEJ3BA0CK563506"},{"address":"Se 60th Ave 323, 97215 Multnomah","coordinates":[-122.6024,45.5207,0],"engineType":"CE","exterior":"UNACCEPTABLE","fuel":36,"interior":"UNACCEPTABLE","name":"372FRH","vin":"WMEEJ3BA9CK561799"},{"address":"N Albina Ave 7409, 97217 Multnomah","coordinates":[-122.67489,45.57661,0],"engineType":"CE","exterior":"GOOD","fuel":72,"interior":"GOOD","name":"377FRH","vin":"WMEEJ3BA0CK562940"},{"address":"Sw Oak St 896, 97205 Multnomah","coordinates":[-122.67998,45.52254,0],"engineType":"CE","exterior":"GOOD","fuel":75,"interior":"GOOD","name":"378FRH","vin":"WMEEJ3BA6CK563106"},{"address":"Se 85th Ave 2385, 97216 Multnomah","coordinates":[-122.57565,45.50547,0],"engineType":"CE","exterior":"GOOD","fuel":100,"interior":"GOOD","name":"159FRH","vin":"WMEEJ3BA1CK560923"},{"address":"Se 88th Ave 275, 97216 Multnomah","coordinates":[-122.57303,45.52047,0],"engineType":"CE","exterior":"UNACCEPTABLE","fuel":100,"interior":"GOOD","name":"244 FRH","vin":"WMEEJ3BA0CK561576"},{"address":"Se Bush St 9220, 97266 Multnomah","coordinates":[-122.56835,45.4945,0],"engineType":"CE","exterior":"GOOD","fuel":100,"interior":"GOOD","name":"363FRH","vin":"WMEEJ3BA8CK561812"},{"address":"Se 2nd Ave 1299, 97214 Multnomah","coordinates":[-122.66391,45.51393,0],"engineType":"CE","exterior":"GOOD","fuel":84,"interior":"GOOD","name":"167 FRH","vin":"WMEEJ3BA3CK561619"},{"address":"Ne Rodney Ave 5373, 97211 Multnomah","coordinates":[-122.66484,45.56206,0],"engineType":"CE","exterior":"GOOD","fuel":100,"interior":"GOOD","name":"220FRH","vin":"WMEEJ3BAXCK561875"},{"address":"N Lagoon Ave 4688, 97217 Multnomah","coordinates":[-122.70185,45.55747,0],"engineType":"CE","exterior":"GOOD","fuel":66,"interior":"GOOD","name":"256FRH","vin":"WMEEJ3BA6CK563140"},{"address":"Ne 67th Ave 101, 97213 Multnomah","coordinates":[-122.59519,45.52364,0],"engineType":"CE","exterior":"GOOD","fuel":69,"interior":"GOOD","name":"345FRH","vin":"WMEEJ3BA7CK561770"},{"address":"Se Lafayette St 2113, 97202 Multnomah","coordinates":[-122.64424,45.49708,0],"engineType":"CE","exterior":"GOOD","fuel":100,"interior":"GOOD","name":"235 FRH","vin":"WMEEJ3BAXCK563724"},{"address":"Se 40th Ave 1597, 97214 Multnomah","coordinates":[-122.62128,45.51141,0],"engineType":"CE","exterior":"GOOD","fuel":100,"interior":"GOOD","name":"214FRH","vin":"WMEEJ3BA9CK561690"},{"address":"Nw 17th Ave 1832, 97209 Multnomah","coordinates":[-122.68862,45.53592,0],"engineType":"CE","exterior":"GOOD","fuel":100,"interior":"GOOD","name":"303FRH","vin":"WMEEJ3BA2CK562664"},{"address":"Ne 55th Ave 5874, 97218 Multnomah","coordinates":[-122.60652,45.56497,0],"engineType":"CE","exterior":"GOOD","fuel":96,"interior":"GOOD","name":"157FRH","vin":"WMEEJ3BA2CK561742"},{"address":"Se Clay St 225, 97214 Multnomah","coordinates":[-122.66355,45.51156,0],"engineType":"CE","exterior":"GOOD","fuel":87,"interior":"GOOD","name":"389FRH","vin":"WMEEJ3BA1CK563868"},{"address":"Nw Glisan St 1135, 97209 Multnomah","coordinates":[-122.68257,45.52664,0],"engineType":"CE","exterior":"GOOD","fuel":57,"interior":"GOOD","name":"352FRH","vin":"WMEEJ3BA9CK570258"},{"address":"N Basin Ave 6742, 97217 Multnomah","coordinates":[-122.71852,45.57202,0],"engineType":"CE","exterior":"GOOD","fuel":100,"interior":"GOOD","name":"212 FRH","vin":"WMEEJ3BA7CK561882"},{"address":"Se 22nd Ave 3678, 97202 Multnomah","coordinates":[-122.64345,45.49651,0],"engineType":"CE","exterior":"GOOD","fuel":45,"interior":"UNACCEPTABLE","name":"321FRH","vin":"WMEEJ3BA2CK560896"},{"address":"Sw Taylor St 480, 97204 Multnomah","coordinates":[-122.67806,45.51741,0],"engineType":"CE","exterior":"UNACCEPTABLE","fuel":33,"interior":"GOOD","name":"173 FRH","vin":"WMEEJ3BA7CK561381"},{"address":"Se 8th Ave 1481, 97214 Multnomah","coordinates":[-122.65779,45.51243,0],"engineType":"CE","exterior":"GOOD","fuel":93,"interior":"GOOD","name":"385FRH","vin":"WMEEJ3BA1CK564129"},{"address":"Se 7th Ave 1853, 97214 Multnomah","coordinates":[-122.65879,45.50975,0],"engineType":"CE","exterior":"GOOD","fuel":45,"interior":"GOOD","name":"274FRH","vin":"WMEEJ3BA0CK567748"},{"address":"Nw Johnson St 1827, 97209 Multnomah","coordinates":[-122.68973,45.52859,0],"engineType":"CE","exterior":"GOOD","fuel":100,"interior":"GOOD","name":"282FRH","vin":"WMEEJ3BA0CK570701"},{"address":"Sw 3rd Ave 519, 97204 Multnomah","coordinates":[-122.67493,45.5195,0],"engineType":"CE","exterior":"GOOD","fuel":100,"interior":"GOOD","name":"358FRH","vin":"WMEEJ3BA1CK568648"},{"address":"Ne 15th Ave 4551, 97211 Multnomah","coordinates":[-122.64979,45.55594,0],"engineType":"CE","exterior":"GOOD","fuel":48,"interior":"UNACCEPTABLE","name":"300FRH","vin":"WMEEJ3BA1CK569038"},{"address":"Se Salmon St 586, 97214 Multnomah","coordinates":[-122.65981,45.5143,0],"engineType":"CE","exterior":"GOOD","fuel":66,"interior":"GOOD","name":"351FRH","vin":"WMEEJ3BA2CK568576"},{"address":"Se 73rd Ave 261, 97215 Multnomah","coordinates":[-122.58801,45.52159,0],"engineType":"CE","exterior":"GOOD","fuel":63,"interior":"GOOD","name":"276FRH","vin":"WMEEJ3BA3CK568280"},{"address":"Ne Alberta St 2285, 97211 Multnomah","coordinates":[-122.64199,45.55914,0],"engineType":"CE","exterior":"GOOD","fuel":100,"interior":"GOOD","name":"277FRH","vin":"WMEEJ3BA3CK568358"},{"address":"Se 34th Ave 685, 97214 Multnomah","coordinates":[-122.62961,45.51799,0],"engineType":"CE","exterior":"GOOD","fuel":27,"interior":"UNACCEPTABLE","name":"271FRH","vin":"WMEEJ3BA3CK569302"},{"address":"Sw 2nd Ave 377, 97204 Multnomah","coordinates":[-122.67343,45.52018,0],"engineType":"CE","exterior":"UNACCEPTABLE","fuel":57,"interior":"UNACCEPTABLE","name":"354FRH","vin":"WMEEJ3BA4CK567686"},{"address":"Sw Ankeny St 62, 97204 Multnomah","coordinates":[-122.67087,45.52255,0],"engineType":"CE","exterior":"GOOD","fuel":69,"interior":"GOOD","name":"290FRH","vin":"WMEEJ3BA4CK569051"},{"address":"Sw Park Ave, 97201 Multnomah","coordinates":[-122.68489,45.51266,0],"engineType":"CE","exterior":"GOOD","fuel":66,"interior":"GOOD","name":"288FRH","vin":"WMEEJ3BA5CK568197"},{"address":"Se Morrison St 261, 97214 Multnomah","coordinates":[-122.66315,45.51732,0],"engineType":"CE","exterior":"GOOD","fuel":39,"interior":"GOOD","name":"356FRH","vin":"WMEEJ3BA5CK568488"},{"address":"Se 26th Ave 5347, 97202 Multnomah","coordinates":[-122.63976,45.48422,0],"engineType":"CE","exterior":"GOOD","fuel":100,"interior":"GOOD","name":"298FRH","vin":"WMEEJ3BA5CK568653"},{"address":"Se Henry St 1569, 97202 Multnomah","coordinates":[-122.65015,45.47649,0],"engineType":"CE","exterior":"GOOD","fuel":100,"interior":"GOOD","name":"284FRH","vin":"WMEEJ3BA6CK568368"},{"address":"Se Knight St 1524, 97202 Multnomah","coordinates":[-122.65034,45.48008,0],"engineType":"CE","exterior":"GOOD","fuel":60,"interior":"GOOD","name":"287FRH","vin":"WMEEJ3BA6CK568533"},{"address":"Ne 29th Ave 6194, 97211 Multnomah","coordinates":[-122.63596,45.56758,0],"engineType":"CE","exterior":"GOOD","fuel":93,"interior":"GOOD","name":"299FRH","vin":"WMEEJ3BA6CK568659"},{"address":"Ne Cully Blvd 5319, 97218 Multnomah","coordinates":[-122.59532,45.56156,0],"engineType":"CE","exterior":"GOOD","fuel":36,"interior":"GOOD","name":"292FRH","vin":"WMEEJ3BA8CK567786"},{"address":"Se 41st Ave 2413, 97214 Multnomah","coordinates":[-122.62033,45.50541,0],"engineType":"CE","exterior":"GOOD","fuel":100,"interior":"GOOD","name":"296FRH","vin":"WMEEJ3BA8CK568453"},{"address":"Ne Boehmer St 8543, 97220 Multnomah","coordinates":[-122.57473,45.54746,0],"engineType":"CE","exterior":"GOOD","fuel":63,"interior":"GOOD","name":"279FRH","vin":"WMEEJ3BA8CK568565"},{"address":"N Cutter Cir 6085, 97217 Multnomah","coordinates":[-122.7029,45.56708,0],"engineType":"CE","exterior":"GOOD","fuel":81,"interior":"GOOD","name":"382FRH","vin":"WMEEJ3BA9CK555954"},{"address":"Ne Killingsworth St 2603, 97211 Multnomah","coordinates":[-122.63898,45.56273,0],"engineType":"CE","exterior":"GOOD","fuel":100,"interior":"GOOD","name":"283FRH","vin":"WMEEJ3BA9CK568302"},{"address":"Se 60th Ave 810, 97215 Multnomah","coordinates":[-122.60197,45.51736,0],"engineType":"CE","exterior":"GOOD","fuel":69,"interior":"GOOD","name":"293FRH","vin":"WMEEJ3BAXCK567837"},{"address":"Sw Water Ave 2818, 97201 Multnomah","coordinates":[-122.67669,45.50294,0],"engineType":"CE","exterior":"GOOD","fuel":100,"interior":"GOOD","name":"285FRH","vin":"WMEEJ3BA4CK568417"},{"address":"Nw 9th Ave 755, 97209 Multnomah","coordinates":[-122.68037,45.52839,0],"engineType":"CE","exterior":"GOOD","fuel":78,"interior":"GOOD","name":"379FRH","vin":"WMEEJ3BA2CK563040"},{"address":"Nw Glisan St 1080, 97209 Multnomah","coordinates":[-122.68202,45.52648,0],"engineType":"CE","exterior":"GOOD","fuel":100,"interior":"GOOD","name":"295FRH","vin":"WMEEJ3BA9CK568297"},{"address":"Se 43rd Ave 4548, 97206 Multnomah","coordinates":[-122.61775,45.48997,0],"engineType":"CE","exterior":"GOOD","fuel":39,"interior":"GOOD","name":"392FRH","vin":"WMEEJ3BA5CK563128"},{"address":"Se 26th Ave 835, 97214 Multnomah","coordinates":[-122.63919,45.51678,0],"engineType":"CE","exterior":"GOOD","fuel":66,"interior":"GOOD","name":"366FRH","vin":"WMEEJ3BA4CK563363"},{"address":"Sw Hooker St 353, 97201 Multnomah","coordinates":[-122.68129,45.50231,0],"engineType":"CE","exterior":"GOOD","fuel":63,"interior":"UNACCEPTABLE","name":"217 FRH","vin":"WMEEJ3BA3CK562043"},{"address":"Nw 12th Ave 376, 97209 Multnomah","coordinates":[-122.68309,45.52565,0],"engineType":"CE","exterior":"GOOD","fuel":100,"interior":"GOOD","name":"275FRH","vin":"WMEEJ3BA1CK568245"},{"address":"Ne 61st Ave 329, 97213 Multnomah","coordinates":[-122.60092,45.52524,0],"engineType":"CE","exterior":"GOOD","fuel":63,"interior":"GOOD","name":"360FRH","vin":"WMEEJ3BA2CK564110"},{"address":"Sw Porter St 113, 97201 Multnomah","coordinates":[-122.67638,45.50158,0],"engineType":"CE","exterior":"GOOD","fuel":45,"interior":"GOOD","name":"510FSK","vin":"WMEEJ3BA7CK570338"},{"address":"Sw Hooker St 54, 97201 Multnomah","coordinates":[-122.67695,45.50223,0],"engineType":"CE","exterior":"GOOD","fuel":78,"interior":"GOOD","name":"187 FRH","vin":"WMEEJ3BA7CK563700"},{"address":"Sw Moody Ave 3621, 97239 Multnomah","coordinates":[-122.67182,45.49703,0],"engineType":"CE","exterior":"UNACCEPTABLE","fuel":39,"interior":"GOOD","name":"353FRH","vin":"WMEEJ3BA5CK567826"},{"address":"Ne 73rd Ave 1221, 97213 Multnomah","coordinates":[-122.58779,45.53169,0],"engineType":"CE","exterior":"GOOD","fuel":100,"interior":"GOOD","name":"511FSK","vin":"WMEEJ3BA6CK570718"},{"address":"Sw Terwilliger Blvd 3468, 97239 Multnomah","coordinates":[-122.68161,45.49909,0],"engineType":"CE","exterior":"GOOD","fuel":51,"interior":"GOOD","name":"376FRH","vin":"WMEEJ3BA8CK563169"},{"address":"Se 9th Ave 2868, 97202 Multnomah","coordinates":[-122.65673,45.50231,0],"engineType":"CE","exterior":"GOOD","fuel":57,"interior":"GOOD","name":"395FRH","vin":"WMEEJ3BA1CK563501"},{"address":"Se Stark St 280, 97214 Multnomah","coordinates":[-122.66295,45.5193,0],"engineType":"CE","exterior":"GOOD","fuel":24,"interior":"GOOD","name":"374FRH","vin":"WMEEJ3BA0CK562758"},{"address":"Nw Vaughn St 1979, 97209 Multnomah","coordinates":[-122.69228,45.53702,0],"engineType":"CE","exterior":"UNACCEPTABLE","fuel":100,"interior":"UNACCEPTABLE","name":"386FRH","vin":"WMEEJ3BAXCK561214"},{"address":"Nw Front Ave 2953, 97210 Multnomah","coordinates":[-122.69897,45.54421,0],"engineType":"CE","exterior":"GOOD","fuel":45,"interior":"GOOD","name":"304FRH","vin":"WMEEJ3BA1CK563692"},{"address":"J St, 97219 Multnomah","coordinates":[-122.73017,45.4408,0],"engineType":"CE","exterior":"GOOD","fuel":96,"interior":"GOOD","name":"238 FRH","vin":"WMEEJ3BA8CK562362"},{"address":"Sw 3rd Ave 537, 97204 Multnomah","coordinates":[-122.67503,45.51941,0],"engineType":"CE","exterior":"GOOD","fuel":69,"interior":"GOOD","name":"579FYV","vin":"WMEEJ3BA8CK567965"},{"address":"Sw Broadway 373, 97205 Multnomah","coordinates":[-122.67842,45.52158,0],"engineType":"CE","exterior":"GOOD","fuel":63,"interior":"GOOD","name":"581FYV","vin":"WMEEJ3BA0CK567958"},{"address":"Sw 3rd Ave 569, 97204 Multnomah","coordinates":[-122.67506,45.51917,0],"engineType":"CE","exterior":"GOOD","fuel":87,"interior":"UNACCEPTABLE","name":"172 FRH","vin":"WMEEJ3BA5CK564196"},{"address":"Sw Terwilliger Blvd 3476, 97239 Multnomah","coordinates":[-122.68153,45.49906,0],"engineType":"CE","exterior":"GOOD","fuel":60,"interior":"GOOD","name":"590FYV","vin":"WMEEJ3BA5CK575778"},{"address":"N Port Center Way, 97217 Multnomah","coordinates":[-122.7018,45.55565,0],"engineType":"CE","exterior":"GOOD","fuel":27,"interior":"GOOD","name":"163 FRH","vin":"WMEEJ3BA1CK561926"},{"address":"Sw Corbett Ave 2777, 97201 Multnomah","coordinates":[-122.67551,45.50311,0],"engineType":"CE","exterior":"GOOD","fuel":33,"interior":"GOOD","name":"587FYV","vin":"WMEEJ3BA4CK575691"},{"address":"Se 18th Ave 1473, 97214 Multnomah","coordinates":[-122.64755,45.51238,0],"engineType":"CE","exterior":"GOOD","fuel":100,"interior":"GOOD","name":"585FYV","vin":"WMEEJ3BA2CK573728"},{"address":"N Cutter Cir 6188, 97217 Multnomah","coordinates":[-122.70113,45.56772,0],"engineType":"CE","exterior":"GOOD","fuel":30,"interior":"GOOD","name":"584FYV","vin":"WMEEJ3BA9CK574293"},{"address":"Nw 11th Ave 419, 97209 Multnomah","charging":false,"coordinates":[-122.68233,45.52596,0],"engineType":"ED","exterior":"GOOD","fuel":45,"interior":"GOOD","name":"011FTH","vin":"WMEEJ9BA1BK473542"},{"address":"Se Schiller St 5290, 97206 Multnomah","charging":false,"coordinates":[-122.60808,45.48788,0],"engineType":"ED","exterior":"GOOD","fuel":66,"interior":"GOOD","name":"021FTH","vin":"WMEEJ9BA8BK473957"},{"address":"Se 64th Ave 4499, 97206 Multnomah","coordinates":[-122.59737,45.49093,0],"engineType":"CE","exterior":"GOOD","fuel":63,"interior":"UNACCEPTABLE","name":"576FYV","vin":"WMEEJ3BA2CK573194"},{"address":"Nw Couch St 877, 97209 Multnomah","coordinates":[-122.6799,45.52376,0],"engineType":"CE","exterior":"UNACCEPTABLE","fuel":33,"interior":"UNACCEPTABLE","name":"565FYV","vin":"WMEEJ3BA0CK573999"},{"address":"Sw Ralston Dr 5846, 97239 Multnomah","coordinates":[-122.68261,45.48145,0],"engineType":"CE","exterior":"GOOD","fuel":39,"interior":"UNACCEPTABLE","name":"564FYV","vin":"WMEEJ3BAXCK573993"},{"address":"Sw Alder St 860, 97205 Multnomah","coordinates":[-122.68053,45.52036,0],"engineType":"CE","exterior":"GOOD","fuel":48,"interior":"GOOD","name":"575FYV","vin":"WMEEJ3BA8CK574141"},{"address":"Ne Stafford St 564, 97211 Multnomah","coordinates":[-122.65965,45.5765,0],"engineType":"CE","exterior":"GOOD","fuel":100,"interior":"GOOD","name":"574FYV","vin":"WMEEJ3BA0CK567992"},{"address":"Sw 1st Ave 880, 97204 Multnomah","coordinates":[-122.67418,45.51654,0],"engineType":"CE","exterior":"GOOD","fuel":100,"interior":"GOOD","name":"571FYV","vin":"WMEEJ3BA1CK574305"},{"address":"Nw 12th Ave 150, 97209 Multnomah","coordinates":[-122.68314,45.52404,0],"engineType":"CE","exterior":"GOOD","fuel":27,"interior":"GOOD","name":"570FYV","vin":"WMEEJ3BA6CK574770"},{"address":"Sw Terwilliger Blvd 2968, 97201 Multnomah","coordinates":[-122.68408,45.50301,0],"engineType":"CE","exterior":"GOOD","fuel":75,"interior":"GOOD","name":"569FYV","vin":"WMEEJ3BA7CK575622"},{"address":"N Port Center Way, 97217 Multnomah","coordinates":[-122.69949,45.55536,0],"engineType":"CE","exterior":"GOOD","fuel":87,"interior":"GOOD","name":"568FYV","vin":"WMEEJ3BA7CK567925"},{"address":"Nw Quimby St 2323, 97210 Multnomah","coordinates":[-122.69921,45.53339,0],"engineType":"CE","exterior":"GOOD","fuel":100,"interior":"GOOD","name":"567FYV","vin":"WMEEJ3BA6CK568029"},{"address":"Se Stark St 124, 97214 Multnomah","coordinates":[-122.66449,45.51943,0],"engineType":"CE","exterior":"GOOD","fuel":27,"interior":"GOOD","name":"359FRH","vin":"WMEEJ3BA2CK568559"},{"address":"E Burnside St 8168, 97215 Multnomah","coordinates":[-122.57949,45.52253,0],"engineType":"CE","exterior":"GOOD","fuel":100,"interior":"GOOD","name":"578FYV","vin":"WMEEJ3BA6CK577605"},{"address":"Sw Kelly Ave 5663, 97239 Multnomah","coordinates":[-122.67587,45.48278,0],"engineType":"CE","exterior":"GOOD","fuel":51,"interior":"GOOD","name":"255FRH","vin":"WMEEJ3BA1CK561635"},{"address":"Se Belmont St 22, 97214 Multnomah","coordinates":[-122.66559,45.51656,0],"engineType":"CE","exterior":"GOOD","fuel":24,"interior":"GOOD","name":"322FRH","vin":"WMEEJ3BA4CK560723"},{"address":"Sw 2nd Ave 870, 97204 Multnomah","coordinates":[-122.67507,45.51688,0],"engineType":"CE","exterior":"GOOD","fuel":69,"interior":"GOOD","name":"221 FRH","vin":"WMEEJ3BA3CK561300"},{"address":"Ne 42nd Ave 6436, 97218 Multnomah","coordinates":[-122.61929,45.56953,0],"engineType":"CE","exterior":"UNACCEPTABLE","fuel":78,"interior":"UNACCEPTABLE","name":"586FYV","vin":"WMEEJ3BAXCK573699"},{"address":"Se 9th Ave 374, 97214 Multnomah","coordinates":[-122.65659,45.52031,0],"engineType":"CE","exterior":"GOOD","fuel":48,"interior":"GOOD","name":"208FRH","vin":"WMEEJ3BA9CK560880"},{"address":"Se 92nd Ave 4553, 97266 Multnomah","coordinates":[-122.56867,45.48836,0],"engineType":"CE","exterior":"GOOD","fuel":100,"interior":"GOOD","name":"247 FRH","vin":"WMEEJ3BA1CK560808"},{"address":"Se 96th Ave 4721, 97266 Multnomah","coordinates":[-122.5652,45.48824,0],"engineType":"CE","exterior":"GOOD","fuel":51,"interior":"GOOD","name":"182 FRH","vin":"WMEEJ3BA2CK562065"},{"address":"Ne Pacific St 10017, 97220 Multnomah","coordinates":[-122.56038,45.52948,0],"engineType":"CE","exterior":"GOOD","fuel":93,"interior":"GOOD","name":"365FRH","vin":"WMEEJ3BA1CK562560"},{"address":"Se 58th Ave 876, 97215 Multnomah","coordinates":[-122.60417,45.5169,0],"engineType":"CE","exterior":"GOOD","fuel":100,"interior":"GOOD","name":"237 FRH","vin":"WMEEJ3BA5CK562805"}]}